[
{"nom":"Álvaro Obregón Distrito Federal","lat":19.3605334,"lng":-99.22670670000002},{"nom":"Azcapotzalco Distrito Federal","lat":19.4846606,"lng":-99.18867490000002},{"nom":"Benito Juárez Distrito Federal","lat":19.3794059,"lng":-99.15914459999999},{"nom":"Coyoacán Distrito Federal","lat":19.3437444,"lng":-99.1561883},{"nom":"Cuajimalpa de Morelos Distrito Federal","lat":19.3631419,"lng":-99.28805969999996},{"nom":"Cuauhtémoc Distrito Federal","lat":19.4356338,"lng":-99.14951070000001},{"nom":"Gustavo Madero Distrito Federal","lat":19.4873329,"lng":-99.12361340000001},{"nom":"Iztacalco Distrito Federal","lat":19.3948036,"lng":-99.09768079999998},{"nom":"Iztapalapa Distrito Federal","lat":19.342083,"lng":-99.0532159},{"nom":"La Magdalena Contreras Distrito Federal","lat":19.3149641,"lng":-99.24258859999998},{"nom":"Miguel Hidalgo Distrito Federal","lat":19.4306575,"lng":-99.2083953},{"nom":"Milpa Alta Distrito Federal","lat":19.1942041,"lng":-99.02670760000001},{"nom":"Tláhuac Distrito Federal","lat":19.2990233,"lng":-99.04364670000001},{"nom":"Tlalpan Distrito Federal","lat":19.2790911,"lng":-99.2114234},{"nom":"Venustiano Carranza Distrito Federal","lat":19.4306069,"lng":-99.09498989999997},{"nom":"Xochimilco Distrito Federal","lat":19.2572314,"lng":-99.10296640000001},{"nom":"Amacuzac Morelos","lat":18.6004449,"lng":-99.3700834},{"nom":"Atlatlahucan Morelos","lat":18.9353236,"lng":-98.89970149999999},{"nom":"Axochiapan Morelos","lat":18.5036585,"lng":-98.75362369999999},{"nom":"Ayala Morelos","lat":18.7606059,"lng":-98.9825083},{"nom":"Coatlán del Río Morelos","lat":18.7438102,"lng":-99.43525290000002},{"nom":"Cuautla Morelos","lat":18.8126047,"lng":-98.95482609999999},{"nom":"Cuernavaca Morelos","lat":18.9242095,"lng":-99.22156590000003},{"nom":"Emiliano Zapata Morelos","lat":18.8478608,"lng":-99.18436759999997},{"nom":"Huitzilac Morelos","lat":19.0282112,"lng":-99.2679119},{"nom":"Jantetelco Morelos","lat":18.7159227,"lng":-98.77703280000003},{"nom":"Jiutepec Morelos","lat":18.8954874,"lng":-99.17329359999997},{"nom":"Jojutla Morelos","lat":18.6134935,"lng":-99.1797737},{"nom":"Jonacatepec Morelos","lat":18.6868603,"lng":-98.80044889999999},{"nom":"Mazatepec Morelos","lat":18.7270683,"lng":-99.36447529999998},{"nom":"Miacatlán Morelos","lat":18.7717876,"lng":-99.3534348},{"nom":"Ocuituco Morelos","lat":18.8776584,"lng":-98.77393239999998},{"nom":"Puente de Ixtla Morelos","lat":18.6175074,"lng":-99.3238086},{"nom":"Temixco Morelos","lat":18.8593026,"lng":-99.23936659999998},{"nom":"Temoac Morelos","lat":18.7725947,"lng":-98.77507309999999},{"nom":"Tepalcingo Morelos","lat":18.5958003,"lng":-98.84601250000003},{"nom":"Tepoztlán Morelos","lat":18.9848015,"lng":-99.09305280000001},{"nom":"Tetecala Morelos","lat":18.727412,"lng":-99.39789389999999},{"nom":"Tetela del Volcán Morelos","lat":18.8937717,"lng":-98.72058770000001},{"nom":"Tlalnepantla Morelos","lat":19.0076969,"lng":-98.99778349999997},{"nom":"Tlaltizapán de Zapata Morelos","lat":18.6891866,"lng":-99.1207129},{"nom":"Tlaquiltenango Morelos","lat":18.6333701,"lng":-99.1612083},{"nom":"Tlayacapan Morelos","lat":18.960767,"lng":-98.9825083},{"nom":"Totolapan Morelos","lat":18.9813757,"lng":-98.92177470000001},{"nom":"Xochitepec Morelos","lat":18.7955184,"lng":-99.23144919999999},{"nom":"Yautepec Morelos","lat":18.8891562,"lng":-99.06263769999998},{"nom":"Yecapixtla Morelos","lat":18.8787309,"lng":-98.86435699999998},{"nom":"Zacatepec Morelos","lat":18.6590633,"lng":-99.1954432},{"nom":"Zacualpan Morelos","lat":18.7889754,"lng":-98.76878299999998},{"nom":"Acambay de Ruíz Castañeda Estado De México","lat":19.9543397,"lng":-99.84411339999997},{"nom":"Acolman Estado De México","lat":19.6420614,"lng":-98.9107373},{"nom":"Aculco Estado De México","lat":20.0985989,"lng":-99.82758609999996},{"nom":"Almoloya de Alquisiras Estado De México","lat":18.8657376,"lng":-99.89400219999999},{"nom":"Almoloya de Juárez Estado De México","lat":19.3690064,"lng":-99.76051159999997},{"nom":"Almoloya del Río Estado De México","lat":19.1591667,"lng":-99.48671819999998},{"nom":"Amanalco Estado De México","lat":19.2540675,"lng":-100.0195984},{"nom":"Amatepec Estado De México","lat":18.6849,"lng":-100.18721349999998},{"nom":"Amecameca Estado De México","lat":19.1252361,"lng":-98.76711309999996},{"nom":"Apaxco Estado De México","lat":19.9727119,"lng":-99.17340480000001},{"nom":"Atenco Estado De México","lat":19.5610315,"lng":-98.91692569999998},{"nom":"Atizapán Estado De México","lat":19.5562275,"lng":-99.26747130000001},{"nom":"Atizapán de Zaragoza Estado De México","lat":19.5562275,"lng":-99.26747130000001},{"nom":"Atlacomulco Estado De México","lat":19.7975581,"lng":-99.87668250000002},{"nom":"Atlautla Estado De México","lat":19.0294848,"lng":-98.77841000000001},{"nom":"Axapusco Estado De México","lat":19.7240495,"lng":-98.75824929999999},{"nom":"Ayapango Estado De México","lat":19.129935,"lng":-98.802258},{"nom":"Calimaya Estado De México","lat":19.1617587,"lng":-99.61782490000002},{"nom":"Capulhuac Estado De México","lat":19.1932184,"lng":-99.4676086},{"nom":"Chalco Estado De México","lat":19.26244,"lng":-98.89694270000001},{"nom":"Chapa de Mota Estado De México","lat":19.8140165,"lng":-99.52616619999998},{"nom":"Chapultepec Estado De México","lat":19.2030655,"lng":-99.5478784},{"nom":"Chiautla Estado De México","lat":19.5511611,"lng":-98.87847120000004},{"nom":"Chicoloapan Estado De México","lat":19.4143591,"lng":-98.9062442},{"nom":"Chiconcuac Estado De México","lat":19.5610249,"lng":-98.89955040000001},{"nom":"Chimalhuacán Estado De México","lat":19.4314047,"lng":-98.95820479999998},{"nom":"Coacalco de Berriozábal Estado De México","lat":19.6385618,"lng":-99.0978796},{"nom":"Coatepec Harinas Estado De México","lat":18.9244995,"lng":-99.76862599999998},{"nom":"Cocotitlán Estado De México","lat":19.2314995,"lng":-98.86660319999999},{"nom":"Coyotepec Estado De México","lat":19.7765924,"lng":-99.20928959999998},{"nom":"Cuautitlán Estado De México","lat":19.6695008,"lng":-99.16550540000003},{"nom":"Cuautitlán Izcalli Estado De México","lat":19.6528089,"lng":-99.22313869999999},{"nom":"Donato Guerra Estado De México","lat":19.3087864,"lng":-100.14403830000003},{"nom":"Ecatepec de Morelos Estado De México","lat":19.601841,"lng":-99.05067439999999},{"nom":"Ecatzingo Estado De México","lat":18.9603278,"lng":-98.74856899999997},{"nom":"El Oro Estado De México","lat":19.8007531,"lng":-100.13391639999998},{"nom":"Huehuetoca Estado De México","lat":19.8277305,"lng":-99.20375079999997},{"nom":"Hueypoxtla Estado De México","lat":19.9115819,"lng":-99.07544769999998},{"nom":"Huixquilucan Estado De México","lat":19.3596272,"lng":-99.34801859999999},{"nom":"Isidro Fabela Estado De México","lat":19.5575846,"lng":-99.41621959999998},{"nom":"Ixtapaluca Estado De México","lat":19.3090538,"lng":-98.9079782},{"nom":"Ixtapan de la Sal Estado De México","lat":18.8390501,"lng":-99.67600959999999},{"nom":"Ixtapan del Oro Estado De México","lat":19.262472,"lng":-100.2663235},{"nom":"Ixtlahuaca Estado De México","lat":19.5699879,"lng":-99.76506589999997},{"nom":"Jalatlaco Estado De México","lat":19.1743807,"lng":-99.4200495},{"nom":"Jaltenco Estado De México","lat":19.750852,"lng":-99.09305280000001},{"nom":"Jilotepec Estado De México","lat":19.9516359,"lng":-99.53675499999997},{"nom":"Jilotzingo Estado De México","lat":19.5391919,"lng":-99.3969715},{"nom":"Jiquipilco Estado De México","lat":19.5573493,"lng":-99.60675309999999},{"nom":"Jocotitlán Estado De México","lat":19.7075577,"lng":-99.78839670000002},{"nom":"Joquicingo Estado De México","lat":19.0491068,"lng":-99.5342617},{"nom":"Juchitepec Estado De México","lat":19.091141,"lng":-98.881554},{"nom":"La Paz Estado De México","lat":19.3611697,"lng":-98.95603649999998},{"nom":"Lerma Estado De México","lat":19.2913424,"lng":-99.5244687},{"nom":"Luvianos Estado De México","lat":18.9200983,"lng":-100.29787620000002},{"nom":"Malinalco Estado De México","lat":18.9483917,"lng":-99.49357980000002},{"nom":"Melchor Ocampo Estado De México","lat":19.7031072,"lng":-99.1434964},{"nom":"Metepec Estado De México","lat":19.2528864,"lng":-99.59855099999999},{"nom":"Mexicaltzingo Estado De México","lat":19.2119603,"lng":-99.58557559999997},{"nom":"Naucalpan de Juárez Estado De México","lat":19.4630841,"lng":-99.24530199999998},{"nom":"Nextlalpan Estado De México","lat":19.73204,"lng":-99.067544},{"nom":"Nezahualcóyotl Estado De México","lat":19.3994934,"lng":-98.98966430000002},{"nom":"Nicolás Romero Estado De México","lat":19.6162033,"lng":-99.30011809999996},{"nom":"Nopaltepec Estado De México","lat":19.7758412,"lng":-98.7122784},{"nom":"Ocoyoacac Estado De México","lat":19.2724803,"lng":-99.46155269999997},{"nom":"Ocuilan Estado De México","lat":18.9781794,"lng":-99.4171298},{"nom":"Otumba Estado De México","lat":19.6988525,"lng":-98.75751000000002},{"nom":"Otzoloapan Estado De México","lat":19.1169249,"lng":-100.295364},{"nom":"Otzolotepec Estado De México","lat":19.4117213,"lng":-99.5592077},{"nom":"Ozumba Estado De México","lat":19.0387483,"lng":-98.79413649999998},{"nom":"Papalotla Estado De México","lat":19.5563141,"lng":-98.85557360000001},{"nom":"Polotitlán Estado De México","lat":20.2241732,"lng":-99.8148223},{"nom":"Rayón Estado De México","lat":19.1460762,"lng":-99.58186109999997},{"nom":"San Antonio la Isla Estado De México","lat":19.1610361,"lng":-99.57044480000002},{"nom":"San Felipe del Progreso Estado De México","lat":19.7129957,"lng":-99.95154739999998},{"nom":"San José del Rincón Estado De México","lat":19.6612661,"lng":-100.15706260000002},{"nom":"San Martín de las Pirámides Estado De México","lat":19.7019622,"lng":-98.83276610000001},{"nom":"San Mateo Atenco Estado De México","lat":19.2630031,"lng":-99.5324296},{"nom":"San Simón de Guerrero Estado De México","lat":19.0215799,"lng":-100.00715689999998},{"nom":"Santo Tomás Estado De México","lat":19.1831837,"lng":-100.26036299999998},{"nom":"Soyaniquilpan de Juárez Estado De México","lat":20.0182414,"lng":-99.5300954},{"nom":"Sultepec Estado De México","lat":18.8616472,"lng":-99.96693140000002},{"nom":"Tecámac Estado De México","lat":19.7122732,"lng":-98.96830729999999},{"nom":"Tejupilco Estado De México","lat":18.9062177,"lng":-100.15071879999999},{"nom":"Temamatla Estado De México","lat":19.2017642,"lng":-98.87211860000002},{"nom":"Temascalapa Estado De México","lat":19.8313905,"lng":-98.89970149999999},{"nom":"Temascalcingo Estado De México","lat":19.9198874,"lng":-100.00520440000003},{"nom":"Temascaltepec Estado De México","lat":19.0436608,"lng":-100.0419728},{"nom":"Temoaya Estado De México","lat":19.4653884,"lng":-99.59404169999999},{"nom":"Tenancingo Estado De México","lat":18.9613103,"lng":-99.5910596},{"nom":"Tenango del Aire Estado De México","lat":19.1576292,"lng":-98.85993719999999},{"nom":"Tenango del Valle Estado De México","lat":19.1066174,"lng":-99.58921750000002},{"nom":"Teoloyucan Estado De México","lat":19.7485555,"lng":-99.17582299999998},{"nom":"Teotihuacán Estado De México","lat":19.6860799,"lng":-98.87163609999999},{"nom":"Tepetlaoxtoc Estado De México","lat":19.5759021,"lng":-98.81698219999998},{"nom":"Tepetlixpa Estado De México","lat":19.0273812,"lng":-98.82249409999997},{"nom":"Tepotzotlán Estado De México","lat":19.7185096,"lng":-99.2065202},{"nom":"Tequixquiac Estado De México","lat":19.9106326,"lng":-99.1400807},{"nom":"Texcaltitlán Estado De México","lat":18.9297949,"lng":-99.93698389999997},{"nom":"Texcalyacac Estado De México","lat":19.127006,"lng":-99.49473499999999},{"nom":"Texcoco Estado De México","lat":19.5060382,"lng":-98.88315030000001},{"nom":"Tezoyuca Estado De México","lat":19.5918565,"lng":-98.91306399999996},{"nom":"Tianguistenco Estado De México","lat":19.1804002,"lng":-99.46761500000002},{"nom":"Timilpan Estado De México","lat":19.8756127,"lng":-99.73510139999996},{"nom":"Tlalmanalco Estado De México","lat":19.205225,"lng":-98.80044889999999},{"nom":"Tlalnepantla de Baz Estado De México","lat":19.5345279,"lng":-99.19073639999999},{"nom":"Tlatlaya Estado De México","lat":18.6158486,"lng":-100.20827159999999},{"nom":"Toluca Estado De México","lat":19.2826098,"lng":-99.65566530000001},{"nom":"Tonanitla Estado De México","lat":19.6886094,"lng":-99.0530056},{"nom":"Tonatico Estado De México","lat":18.8085105,"lng":-99.67033359999999},{"nom":"Tultepec Estado De México","lat":19.6860054,"lng":-99.12608660000001},{"nom":"Tultitlán Estado De México","lat":19.645565,"lng":-99.16892690000003},{"nom":"Valle de Bravo Estado De México","lat":19.1950964,"lng":-100.13267250000001},{"nom":"Valle de Chalco Solidaridad Estado De México","lat":19.2918652,"lng":-98.93882989999997},{"nom":"Villa de Allende Estado De México","lat":19.3735634,"lng":-100.14719860000002},{"nom":"Villa del Carbón Estado De México","lat":19.7287602,"lng":-99.4617111},{"nom":"Villa Victoria Estado De México","lat":19.4376729,"lng":-99.9954161},{"nom":"Xonacatlán Estado De México","lat":19.4042181,"lng":-99.53027050000003},{"nom":"Zacazonapan Estado De México","lat":19.0737179,"lng":-100.25325399999997},{"nom":"Zacualpan Estado De México","lat":18.7188952,"lng":-99.77599069999997},{"nom":"Zinacantepec Estado De México","lat":19.2952666,"lng":-99.73263980000002},{"nom":"Zumpahuacán Estado De México","lat":18.834565,"lng":-99.581481},{"nom":"Zumpango Estado De México","lat":19.8039297,"lng":-99.09305280000001},{"nom":"Acajete Puebla","lat":19.1061301,"lng":-97.9522432},{"nom":"Acateno Puebla","lat":20.1307737,"lng":-97.21086500000001},{"nom":"Acatlán Puebla","lat":18.2031928,"lng":-98.04981069999997},{"nom":"Acatzingo Puebla","lat":18.9806374,"lng":-97.78427199999999},{"nom":"Acteopan Puebla","lat":18.7648967,"lng":-98.71474089999998},{"nom":"Ahuacatlán Puebla","lat":20.0063173,"lng":-97.85859260000001},{"nom":"Ahuatlán Puebla","lat":18.5711517,"lng":-98.25653940000001},{"nom":"Ahuazotepec Puebla","lat":20.044323,"lng":-98.16182090000001},{"nom":"Ahuehuetitla Puebla","lat":18.2145323,"lng":-98.21891870000002},{"nom":"Ajalpan Puebla","lat":18.3781582,"lng":-97.25912540000002},{"nom":"Albino Zertuche Puebla","lat":18.0170466,"lng":-98.54103299999997},{"nom":"Aljojuca Puebla","lat":19.0977497,"lng":-97.53176309999998},{"nom":"Altepexi Puebla","lat":18.3693599,"lng":-97.29822239999999},{"nom":"Amixtlán Puebla","lat":20.0483582,"lng":-97.79870629999999},{"nom":"Amozoc Puebla","lat":19.043829,"lng":-98.04378939999998},{"nom":"Aquixtla Puebla","lat":19.7960219,"lng":-97.93378439999998},{"nom":"Atempan Puebla","lat":19.8379586,"lng":-97.45644390000001},{"nom":"Atexcal Puebla","lat":18.4015595,"lng":-97.73409049999998},{"nom":"Atlequizayan Puebla","lat":20.012966,"lng":-97.62392299999999},{"nom":"Atlixco Puebla","lat":18.9131227,"lng":-98.42938909999998},{"nom":"Atoyatempan Puebla","lat":18.8208301,"lng":-97.9129873},{"nom":"Atzala Puebla","lat":18.5462597,"lng":-98.5528491},{"nom":"Atzitzihuacán Puebla","lat":18.8243415,"lng":-98.58335540000002},{"nom":"Atzitzintla Puebla","lat":18.8969729,"lng":-97.32402339999999},{"nom":"Axutla Puebla","lat":18.1882099,"lng":-98.38983059999998},{"nom":"Ayotoxco de Guerrero Puebla","lat":20.0963729,"lng":-97.41032539999998},{"nom":"Calpan Puebla","lat":19.1047596,"lng":-98.46501109999997},{"nom":"Caltepec Puebla","lat":18.1822552,"lng":-97.47932910000003},{"nom":"Camocuautla Puebla","lat":20.0374877,"lng":-97.75660959999999},{"nom":"Cañada Morelos Puebla","lat":18.7375349,"lng":-97.41939990000003},{"nom":"Caxhuacan Puebla","lat":20.0633589,"lng":-97.60650550000003},{"nom":"Chalchicomula de Sesma Puebla","lat":18.9854,"lng":-97.44448999999997},{"nom":"Chapulco Puebla","lat":18.6102282,"lng":-97.40961649999997},{"nom":"Chiautla Puebla","lat":18.2996964,"lng":-98.6021399},{"nom":"Chiautzingo Puebla","lat":19.205611,"lng":-98.4677135},{"nom":"Chichiquila Puebla","lat":19.1995127,"lng":-97.06710299999997},{"nom":"Chiconcuautla Puebla","lat":20.0948634,"lng":-97.9379846},{"nom":"Chietla Puebla","lat":18.5206314,"lng":-98.57824260000001},{"nom":"Chigmecatitlán Puebla","lat":18.6454934,"lng":-98.07508689999997},{"nom":"Chignahuapan Puebla","lat":19.8383768,"lng":-98.03120839999997},{"nom":"Chignautla Puebla","lat":19.8131376,"lng":-97.39082830000001},{"nom":"Chila Puebla","lat":17.9675894,"lng":-97.86479980000001},{"nom":"Chila de la Sal Puebla","lat":18.1074675,"lng":-98.4831653},{"nom":"Chilchotla Puebla","lat":19.2531376,"lng":-97.18547849999999},{"nom":"Chinantla Puebla","lat":18.2025702,"lng":-98.2634304},{"nom":"Coatepec Puebla","lat":20.0605321,"lng":-97.73143519999996},{"nom":"Coatzingo Puebla","lat":18.6146567,"lng":-98.17292099999997},{"nom":"Cohetzala Puebla","lat":18.2060457,"lng":-98.80557979999998},{"nom":"Cohuecan Puebla","lat":18.7839702,"lng":-98.71982489999999},{"nom":"Coronango Puebla","lat":19.1201907,"lng":-98.30694260000001},{"nom":"Coxcatlán Puebla","lat":18.2655444,"lng":-97.15037610000002},{"nom":"Coyomeapan Puebla","lat":18.2798437,"lng":-96.98786100000001},{"nom":"Coyotepec Puebla","lat":18.4023964,"lng":-97.83286199999998},{"nom":"Cuapiaxtla de Madero Puebla","lat":18.9189112,"lng":-97.82591739999998},{"nom":"Cuautempan Puebla","lat":19.9151212,"lng":-97.79496940000001},{"nom":"Cuautinchán Puebla","lat":18.9542208,"lng":-98.01746079999998},{"nom":"Cuautlancingo Puebla","lat":19.0966337,"lng":-98.27246330000003},{"nom":"Cuayuca de Andrade Puebla","lat":18.4857307,"lng":-98.18239949999997},{"nom":"Cuetzalan del Progreso Puebla","lat":20.0176353,"lng":-97.5233705},{"nom":"Cuyoaco Puebla","lat":19.6017894,"lng":-97.62108870000003},{"nom":"Domingo Arenas Puebla","lat":19.1388467,"lng":-98.45342499999998},{"nom":"Eloxochitlán Puebla","lat":18.5011226,"lng":-96.95290779999999},{"nom":"Epatlán Puebla","lat":18.644639,"lng":-98.36940900000002},{"nom":"Esperanza Puebla","lat":18.8579982,"lng":-97.37354160000001},{"nom":"Francisco Z Mena Puebla","lat":20.7329044,"lng":-97.85008449999998},{"nom":"General Felipe Ángeles Puebla","lat":18.9938825,"lng":-97.70697849999999},{"nom":"Guadalupe Puebla","lat":18.0888339,"lng":-98.12030759999999},{"nom":"Guadalupe Victoria Puebla","lat":19.168709, "lng":-98.311838},{"nom":"Hermenegildo Galeana Puebla","lat":20.1207505,"lng":-97.74365519999998},{"nom":"Honey Puebla","lat":20.2385675,"lng":-98.212511},{"nom":"Huaquechula Puebla","lat":18.7706524,"lng":-98.54465449999998},{"nom":"Huatlatlauca Puebla","lat":18.6825327,"lng":-98.04625729999998},{"nom":"Huauchinango Puebla","lat":20.1757001,"lng":-98.06288619999998},{"nom":"Huehuetla Puebla","lat":20.1047232,"lng":-97.62517739999998},{"nom":"Huehuetlán el Chico Puebla","lat":18.3734012,"lng":-98.69004789999997},{"nom":"Huehuetlán el Grande Puebla","lat":18.7362471,"lng":-98.16557599999999},{"nom":"Huejotzingo Puebla","lat":19.1589453,"lng":-98.40471630000002},{"nom":"Hueyapan Puebla","lat":19.8825658,"lng":-97.44548580000003},{"nom":"Hueytamalco Puebla","lat":19.9401027,"lng":-97.28956629999999},{"nom":"Hueytlalpan Puebla","lat":20.0263412,"lng":-97.6980289},{"nom":"Huitzilan de Serdán Puebla","lat":19.9705968,"lng":-97.69351419999998},{"nom":"Huitziltepec Puebla","lat":18.770536,"lng":-97.88172170000001},{"nom":"Ixcamilpa de Guerrero Puebla","lat":18.0315893,"lng":-98.69615680000004},{"nom":"Ixcaquixtla Puebla","lat":18.4586846,"lng":-97.83135620000002},{"nom":"Ixtacamaxtitlán Puebla","lat":19.6223314,"lng":-97.81490359999998},{"nom":"Ixtepec Puebla","lat":20.0243642,"lng":-97.6455914},{"nom":"Izúcar de Matamoros Puebla","lat":18.5991249,"lng":-98.46778510000001},{"nom":"Jalpan Puebla","lat":20.4774239,"lng":-97.94258009999999},{"nom":"Jolalpan Puebla","lat":18.3201657,"lng":-98.84333909999998},{"nom":"Jonotla Puebla","lat":20.0300512,"lng":-97.57506560000002},{"nom":"Jopala Puebla","lat":20.1628439,"lng":-97.69279840000002},{"nom":"Juan C Bonilla Puebla","lat":19.1068533,"lng":-98.3264059},{"nom":"Juan Galindo Puebla","lat":20.2098691,"lng":-98.0004816},{"nom":"Juan N Méndez Puebla","lat":18.5436828,"lng":-97.77274840000001},{"nom":"La Magdalena Tlatlauquitepec Puebla","lat":18.7584519,"lng":-98.100684},{"nom":"Lafragua Puebla","lat":19.2960383,"lng":-97.2968823},{"nom":"Libres Puebla","lat":19.4653239,"lng":-97.68750160000002},{"nom":"Los Reyes de Juárez Puebla","lat":18.9452534,"lng":-97.80626769999998},{"nom":"Mazapiltepec de Juárez Puebla","lat":19.1188237,"lng":-97.70126540000001},{"nom":"Mixtla Puebla","lat":18.9030573,"lng":-97.89636810000002},{"nom":"Molcaxac Puebla","lat":18.7381619,"lng":-97.91104239999999},{"nom":"Naupan Puebla","lat":20.2315059,"lng":-98.10830929999997},{"nom":"Nauzontla Puebla","lat":19.960788,"lng":-97.60373519999996},{"nom":"Nealtican Puebla","lat":19.0482747,"lng":-98.42693840000004},{"nom":"Nicolás Bravo Puebla","lat":18.6129007,"lng":-97.30575759999999},{"nom":"Nopalucan Puebla","lat":19.2169287,"lng":-97.82526759999996},{"nom":"Ocotepec Puebla","lat":19.5555549,"lng":-97.64995479999999},{"nom":"Ocoyucan Puebla","lat":18.9416539,"lng":-98.31979460000002},{"nom":"Olintla Puebla","lat":20.1011142,"lng":-97.68414189999999},{"nom":"Oriental Puebla","lat":19.3749172,"lng":-97.6198369},{"nom":"Pahuatlán Puebla","lat":20.2769343,"lng":-98.1501609},{"nom":"Palmar de Bravo Puebla","lat":18.8349423,"lng":-97.5462344},{"nom":"Pantepec Puebla","lat":20.5193016,"lng":-97.93807320000002},{"nom":"Petlalcingo Puebla","lat":18.0831157,"lng":-97.91792559999999},{"nom":"Piaxtla Puebla","lat":18.1976354,"lng":-98.25464970000002},{"nom":"Puebla Puebla","lat":19.0414398,"lng":-98.2062727},{"nom":"Quecholac Puebla","lat":18.9554497,"lng":-97.65752370000001},{"nom":"Quimixtlán Puebla","lat":19.2525922,"lng":-97.1371464},{"nom":"Rafael Lara Grajales Puebla","lat":19.2241665,"lng":-97.79999989999999},{"nom":"San Andrés Cholula Puebla","lat":19.0378006,"lng":-98.30070860000001},{"nom":"San Antonio Cañada Puebla","lat":18.497789,"lng":-97.28412600000001},{"nom":"San Diego la Mesa Tochimiltzingo Puebla","lat":18.8103672,"lng":-98.3301356},{"nom":"San Felipe Teotlalcingo Puebla","lat":19.2346698,"lng":-98.50116980000001},{"nom":"San Felipe Tepatlán Puebla","lat":20.0908398,"lng":-97.79669130000002},{"nom":"San Gabriel Chilac Puebla","lat":18.3261353,"lng":-97.34857290000002},{"nom":"San Gregorio Atzompa Puebla","lat":19.0216769,"lng":-98.35016459999997},{"nom":"San Jerónimo Tecuanipan Puebla","lat":19.0376748,"lng":-98.41293960000002},{"nom":"San Jerónimo Xayacatlán Puebla","lat":18.2227295,"lng":-97.91026469999997},{"nom":"San José Chiapa Puebla","lat":19.2388424,"lng":-97.76771539999999},{"nom":"San José Miahuatlán Puebla","lat":18.2915614,"lng":-97.28956629999999},{"nom":"San Juan Atenco Puebla","lat":19.0857002,"lng":-97.53979190000001},{"nom":"San Juan Atzompa Puebla","lat":18.7457747,"lng":-98.0237909},{"nom":"San Martín Texmelucan Puebla","lat":19.284383,"lng":-98.43487300000004},{"nom":"San Martín Totoltepec Puebla","lat":18.651929,"lng":-98.3462169},{"nom":"San Matías Tlalancaleca Puebla","lat":19.3230998,"lng":-98.49806810000001},{"nom":"San Miguel Ixitlán Puebla","lat":18.002526,"lng":-97.77377430000001},{"nom":"San Miguel Xoxtla Puebla","lat":19.1667664,"lng":-98.30948169999999},{"nom":"San Nicolás Buenos Aires Puebla","lat":19.1634347,"lng":-97.55095010000002},{"nom":"San Nicolás de los Ranchos Puebla","lat":19.0711948,"lng":-98.48561849999999},{"nom":"San Pablo Anicano Puebla","lat":18.1240384,"lng":-98.0856642},{"nom":"San Pedro Cholula Puebla","lat":19.0568652,"lng":-98.30523740000001},{"nom":"San Pedro Yeloixtlahuaca Puebla","lat":18.1171339,"lng":-98.07710759999998},{"nom":"San Salvador el Seco Puebla","lat":19.1304258,"lng":-97.6385368},{"nom":"San Salvador el Verde Puebla","lat":19.2685444,"lng":-98.51650560000002},{"nom":"San Salvador Huixcolotla Puebla","lat":18.9150659,"lng":-97.77698750000002},{"nom":"San Sebastián Tlacotepec Puebla","lat":18.4041547,"lng":-96.84945829999998},{"nom":"Santa Catarina Tlaltempan Puebla","lat":18.6132077,"lng":-98.08011599999998},{"nom":"Santa Inés Ahuatempan Puebla","lat":18.4124909,"lng":-98.01695159999997},{"nom":"Santa Isabel Cholula Puebla","lat":18.9924962,"lng":-98.37787459999998},{"nom":"Santiago Miahuatlán Puebla","lat":18.5480398,"lng":-97.4435441},{"nom":"Santo Tomás Hueyotlipan Puebla","lat":18.8893896,"lng":-97.86459689999998},{"nom":"Soltepec Puebla","lat":19.1241887,"lng":-97.71723020000002},{"nom":"Tecali de Herrera Puebla","lat":18.9022377,"lng":-97.9742086},{"nom":"Tecamachalco Puebla","lat":18.8819104,"lng":-97.73272559999998},{"nom":"Tecomatlán Puebla","lat":18.1078872,"lng":-98.31315459999996},{"nom":"Tehuacán Puebla","lat":18.4665063,"lng":-97.4003801},{"nom":"Tehuitzingo Puebla","lat":18.3297054,"lng":-98.2758531},{"nom":"Tenampulco Puebla","lat":20.1703504,"lng":-97.4054731},{"nom":"Teopantlán Puebla","lat":18.7136505,"lng":-98.2622766},{"nom":"Teotlalco Puebla","lat":18.4690479,"lng":-98.7783551},{"nom":"Tepanco de López Puebla","lat":18.5888809,"lng":-97.5355831},{"nom":"Tepango de Rodríguez Puebla","lat":20.0047824,"lng":-97.79737390000003},{"nom":"Tepatlaxco de Hidalgo Puebla","lat":19.0778744,"lng":-97.97290939999999},{"nom":"Tepeaca Puebla","lat":18.9659554,"lng":-97.89937559999998},{"nom":"Tepemaxalco Puebla","lat":18.7368775,"lng":-98.62830179999997},{"nom":"Tepeojuma Puebla","lat":18.7203164,"lng":-98.44688810000002},{"nom":"Tepetzintla Puebla","lat":19.9669377,"lng":-97.84156610000002},{"nom":"Tepexco Puebla","lat":18.6412085,"lng":-98.68798709999999},{"nom":"Tepexi de Rodríguez Puebla","lat":18.5842989,"lng":-97.92973310000002},{"nom":"Tepeyahualco Puebla","lat":19.4901472,"lng":-97.48968309999998},{"nom":"Tepeyahualco de Cuauhtémoc Puebla","lat":18.8142744,"lng":-97.87772960000001},{"nom":"Tetela de Ocampo Puebla","lat":19.8115842,"lng":-97.80960370000003},{"nom":"Teteles de Avila Castillo Puebla","lat":19.8587759,"lng":-97.45698040000002},{"nom":"Teziutlán Puebla","lat":19.8171152,"lng":-97.35929679999998},{"nom":"Tianguismanalco Puebla","lat":19.0177302,"lng":-98.46229870000002},{"nom":"Tilapa Puebla","lat":18.5938147,"lng":-98.55391939999998},{"nom":"Tlachichuca Puebla","lat":19.1128157,"lng":-97.41920870000001},{"nom":"Tlacotepec de Benito Juárez Puebla","lat":18.6816256,"lng":-97.64831779999997},{"nom":"Tlacuilotepec Puebla","lat":20.3257377,"lng":-98.07133149999999},{"nom":"Tlahuapan Puebla","lat":19.336704,"lng":-98.58243649999997},{"nom":"Tlaltenango Puebla","lat":19.1705854,"lng":-98.34228560000003},{"nom":"Tlanepantla Puebla","lat":18.8632785,"lng":-97.88576649999999},{"nom":"Tlaola Puebla","lat":20.1364174,"lng":-97.92129590000002},{"nom":"Tlapacoya Puebla","lat":20.1225034,"lng":-97.85135660000003},{"nom":"Tlapanalá Puebla","lat":18.6957457,"lng":-98.53367639999999},{"nom":"Tlatlauquitepec Puebla","lat":19.8463549,"lng":-97.49719809999999},{"nom":"Tlaxco Puebla","lat":20.4212271,"lng":-98.02879089999999},{"nom":"Tochimilco Puebla","lat":18.8905552,"lng":-98.5725539},{"nom":"Tochtepec Puebla","lat":18.8365331,"lng":-97.8204791},{"nom":"Totoltepec de Guerrero Puebla","lat":18.2234824,"lng":-97.8554479},{"nom":"Tulcingo Puebla","lat":18.0430227,"lng":-98.4392689},{"nom":"Tuzamapan de Galeana Puebla","lat":20.0645747,"lng":-97.57508989999997},{"nom":"Tzicatlacoyan Puebla","lat":18.839323,"lng":-98.04553399999998},{"nom":"Venustiano Carranza Puebla","lat":20.5077822,"lng":-97.67119589999999},{"nom":"Vicente Guerrero Puebla","lat":18.5421953,"lng":-97.19713259999997},{"nom":"Xayacatlán de Bravo Puebla","lat":18.2389052,"lng":-97.97550609999996},{"nom":"Xicotepec Puebla","lat":20.2786208,"lng":-97.96425899999997},{"nom":"Xicotlán Puebla","lat":18.0586304,"lng":-98.5255209},{"nom":"Xiutetelco Puebla","lat":19.7929269,"lng":-97.3249644},{"nom":"Xochiapulco Puebla","lat":19.820327,"lng":-97.65876809999997},{"nom":"Xochiltepec Puebla","lat":18.6504721,"lng":-98.3403313},{"nom":"Xochitlán de Vicente Suárez Puebla","lat":19.9686129,"lng":-97.62988100000001},{"nom":"Xochitlán Todos Santos Puebla","lat":18.7032779,"lng":-97.77205040000001},{"nom":"Yaonáhuac Puebla","lat":19.8760131,"lng":-97.4655052},{"nom":"Yehualtepec Puebla","lat":18.795868,"lng":-97.66294949999997},{"nom":"Zacapala Puebla","lat":18.5925316,"lng":-98.065042},{"nom":"Zacapoaxtla Puebla","lat":19.8727772,"lng":-97.58806809999999},{"nom":"Zacatlán Puebla","lat":19.9350819,"lng":-97.9611534},{"nom":"Zapotitlán Puebla","lat":18.3311,"lng":-97.46938290000003},{"nom":"Zapotitlán de Méndez Puebla","lat":20.0019768,"lng":-97.7142086},{"nom":"Zaragoza Puebla","lat":19.7693245,"lng":-97.5545143},{"nom":"Zautla Puebla","lat":19.7126435,"lng":-97.67174849999998},{"nom":"Zihuateutla Puebla","lat":20.2531769,"lng":-97.88712729999997},{"nom":"Zinacatepec Puebla","lat":18.3369733,"lng":-97.24427830000002},{"nom":"Zongozotla Puebla","lat":19.9787081,"lng":-97.72668779999998},{"nom":"Zoquiapan Puebla","lat":20.0097414,"lng":-97.59589790000001},{"nom":"Zoquitlán Puebla","lat":18.3363189,"lng":-97.02019389999998}

,{"nom":"Acuamanala de Miguel Hidalgo Tlaxcala","lat":19.2234754,"lng":-98.20071489999998},{"nom":"Altzayanca Tlaxcala","lat":19.4302022,"lng":-97.79451640000002},{"nom":"Amaxac de Guerrero Tlaxcala","lat":19.3527871,"lng":-98.16390230000002},{"nom":"Apetatitlán de Antonio Carvajal Tlaxcala","lat":19.3320799,"lng":-98.1964605},{"nom":"Apizaco Tlaxcala","lat":19.415881,"lng":-98.13931789999998},{"nom":"Atlangatepec Tlaxcala","lat":19.5319254,"lng":-98.209249},{"nom":"Benito Juárez Tlaxcala","lat":19.5849129,"lng":-98.42828109999999},{"nom":"Calpulalpan Tlaxcala","lat":19.5850377,"lng":-98.56660769999996},{"nom":"Chiautempan Tlaxcala","lat":19.3125811,"lng":-98.191238},{"nom":"Contla de Juan Cuamatzi Tlaxcala","lat":19.3342589,"lng":-98.17051040000001},{"nom":"Cuapiaxtla Tlaxcala","lat":19.2954597,"lng":-97.76854409999999},{"nom":"Cuaxomulco Tlaxcala","lat":19.3557151,"lng":-98.09836239999998},{"nom":"El Carmen Tequexquitla Tlaxcala","lat":19.3251486,"lng":-97.6526182},{"nom":"Emiliano Zapata Tlaxcala","lat":19.5576533,"lng":-97.91659390000001},{"nom":"Españita Tlaxcala","lat":19.4621539,"lng":-98.4221291},{"nom":"Huamantla Tlaxcala","lat":19.3184941,"lng":-97.92338260000002},{"nom":"Hueyotlipan Tlaxcala","lat":19.4671573,"lng":-98.34599809999997},{"nom":"Ixtacuixtla de Mariano Matamoros Tlaxcala","lat":19.3278754,"lng":-98.37642169999998},{"nom":"Ixtenco Tlaxcala","lat":19.2523696,"lng":-97.89665360000004},{"nom":"La Magdalena Tlaltelulco Tlaxcala","lat":19.2780524,"lng":-98.18623309999998},{"nom":"Lázaro Cárdenas Tlaxcala","lat":19.4924332,"lng":-98.46908869999999},{"nom":"Mazatecochco de José María Morelos Tlaxcala","lat":19.1768317,"lng":-98.18829390000002},{"nom":"Muñoz de Domingo Arenas Tlaxcala","lat":19.4792166,"lng":-98.20766889999999},{"nom":"Nanacamilpa de Mariano Arista Tlaxcala","lat":19.4949991,"lng":-98.53639820000001},{"nom":"Natívitas Tlaxcala","lat":19.2332482,"lng":-98.3159589},{"nom":"Panotla Tlaxcala","lat":19.3124375,"lng":-98.27326590000001},{"nom":"Papalotla de Xicohténcatl Tlaxcala","lat":19.1667789,"lng":-98.21007589999999},{"nom":"San Damián Texóloc Tlaxcala","lat":19.2779222,"lng":-98.28606059999998},{"nom":"San Francisco Tetlanohcan Tlaxcala","lat":19.2609269,"lng":-98.17209889999998},{"nom":"San Jerónimo Zacualpan Tlaxcala","lat":19.2421134,"lng":-98.26161309999998},{"nom":"San José Teacalco Tlaxcala","lat":19.3367829,"lng":-98.06317159999998},{"nom":"San Juan Huactzinco Tlaxcala","lat":19.2320402,"lng":-98.25260809999997},{"nom":"San Lorenzo Axocomanitla Tlaxcala","lat":19.2243413,"lng":-98.24903770000003},{"nom":"San Lucas Tecopilco Tlaxcala","lat":19.4867242,"lng":-98.25561449999998},{"nom":"San Pablo del Monte Tlaxcala","lat":19.1315845,"lng":-98.16117029999998},{"nom":"Sanctórum de Lázaro Cárdenas Tlaxcala","lat":19.4924332,"lng":-98.46908869999999},{"nom":"Santa Ana Nopalucan Tlaxcala","lat":19.2978928,"lng":-98.33348509999996},{"nom":"Santa Apolonia Teacalco Tlaxcala","lat":19.2442482,"lng":-98.31295039999998},{"nom":"Santa Catarina Ayometla Tlaxcala","lat":19.1968806,"lng":-98.2185637},{"nom":"Santa Cruz Quilehtla Tlaxcala","lat":19.2143378,"lng":-98.22403209999999},{"nom":"Santa Cruz Tlaxcala Tlaxcala","lat":19.3539314,"lng":-98.1514914},{"nom":"Santa Isabel Xiloxoxtla Tlaxcala","lat":19.2622855,"lng":-98.20762819999999},{"nom":"Tenancingo Tlaxcala","lat":19.1445101,"lng":-98.20216099999999},{"nom":"Teolocholco Tlaxcala","lat":19.239659,"lng":-98.18576200000001},{"nom":"Tepetitla de Lardizábal Tlaxcala","lat":19.2636556,"lng":-98.37447229999998},{"nom":"Tepeyanco Tlaxcala","lat":19.2448882,"lng":-98.23360279999997},{"nom":"Terrenate Tlaxcala","lat":19.4736457,"lng":-97.9246809},{"nom":"Tetla de la Solidaridad Tlaxcala","lat":19.4415302,"lng":-98.10514990000001},{"nom":"Tetlatlahuca Tlaxcala","lat":19.2333174,"lng":-98.29378969999999},{"nom":"Tlaxcala Tlaxcala","lat":19.3139243,"lng":-98.24043970000002},{"nom":"Tlaxco Tlaxcala","lat":19.61766,"lng":-98.11747209999999},{"nom":"Tocatlán Tlaxcala","lat":19.388624,"lng":-98.02197380000001},{"nom":"Totolac Tlaxcala","lat":19.3251524,"lng":-98.26353719999997},{"nom":"Tzompantepec Tlaxcala","lat":19.3736709,"lng":-98.09290340000001},{"nom":"Xaloztoc Tlaxcala","lat":19.4079657,"lng":-98.05197399999997},{"nom":"Xaltocan Tlaxcala","lat":19.4256555,"lng":-98.21719669999999},{"nom":"Xicohtzinco Tlaxcala","lat":19.1753697,"lng":-98.23770489999998},{"nom":"Yauhquemehcan Tlaxcala","lat":19.4139157,"lng":-98.1830291},{"nom":"Zacatelco Tlaxcala","lat":19.1984792,"lng":-98.24864489999999},{"nom":"Ziltlaltépec de Trinidad Sánchez Santos Tlaxcala","lat":19.2038774,"lng":-97.90825689999997}]